City,Lat,Lng,Max Temp,Humidity,Cloudiness,Wind Speed,Country,Date
bandarbeyla,9.4942,50.8122,79.65,73,99,11.32,SO,1615784508
punta arenas,-53.15,-70.9167,48.2,93,90,5.75,CL,1615784508
saint-philippe,-21.3585,55.7679,78.8,78,97,8.05,RE,1615784509
puerto el triunfo,13.2833,-88.55,75.2,83,0,2.3,SV,1615784509
port alfred,-33.5906,26.891,69.01,96,99,11.07,ZA,1615784510
muravlenko,63.7898,74.523,16.9,92,94,13.76,RU,1615784510
bredasdorp,-34.5322,20.0403,64.4,94,100,13.8,ZA,1615784511
ushuaia,-54.8,-68.3,48.2,71,75,3.44,AR,1615784511
hambantota,6.1241,81.1185,86.0,70,20,14.97,LK,1615784512
nemuro,43.3236,145.575,41.0,65,75,16.11,JP,1615784512
broome,42.2506,-75.833,21.99,63,90,23.02,US,1615784513
busselton,-33.65,115.3333,80.01,35,27,7.0,AU,1615784513
bluff,-46.6,168.3333,57.0,71,47,11.01,NZ,1615784513
tuskegee,32.424,-85.6916,66.2,55,1,8.05,US,1615784514
kikwit,-5.041,18.8162,71.98,96,100,1.45,CD,1615784514
chowchilla,37.123,-120.2602,53.6,71,40,5.75,US,1615784515
kavieng,-2.5744,150.7967,83.12,76,93,12.06,PG,1615784515
petropavlovsk-kamchatskiy,53.0452,158.6483,42.8,39,0,6.71,RU,1615784516
kodiak,57.79,-152.4072,33.8,60,1,8.05,US,1615784516
yellowknife,62.456,-114.3525,5.0,85,90,8.05,CA,1615784487
analipsis,35.3167,25.5667,57.99,87,40,10.36,GR,1615784517
chokurdakh,70.6333,147.9167,-13.94,91,0,6.29,RU,1615784517
akyab,20.15,92.9,86.41,31,0,6.91,MM,1615784517
tiksi,71.6872,128.8694,-0.02,95,100,5.86,RU,1615784518
jishu,44.3167,126.8,37.06,54,100,17.76,CN,1615784518
butaritari,3.0707,172.7902,81.7,77,8,13.87,KI,1615784519
thompson,55.7435,-97.8558,26.6,43,75,10.36,CA,1615784519
havelock,34.8791,-76.9013,60.8,36,75,8.05,US,1615784520
mataura,-46.1927,168.8643,57.0,71,93,11.01,NZ,1615784520
avarua,-21.2078,-159.775,82.4,78,20,6.91,CK,1615784520
luganville,-15.5333,167.1667,81.25,82,81,5.3,VU,1615784477
rikitea,-23.1203,-134.9692,81.63,72,48,1.07,PF,1615784521
katsuura,35.1333,140.3,64.0,42,20,13.8,JP,1615784521
faanui,-16.4833,-151.75,83.03,75,25,11.65,PF,1615784522
alta floresta,-9.8756,-56.0861,69.82,97,78,1.03,BR,1615784396
udachnyy,66.4167,112.4,-6.09,83,69,12.93,RU,1615784523
saskylakh,71.9167,114.0833,-17.52,93,98,3.67,RU,1615784523
islampur,26.2667,88.2,88.61,24,0,1.16,IN,1615784524
norman wells,65.282,-126.8329,-7.6,77,75,9.22,CA,1615784524
victoria,22.2855,114.1577,80.01,66,45,5.01,HK,1615784524
saint-francois,46.4154,3.9054,41.0,87,90,12.66,FR,1615784525
albany,42.6001,-73.9662,21.99,33,44,7.0,US,1615784252
myitkyina,25.3833,97.4,95.23,24,0,1.14,MM,1615784526
kapaa,22.0752,-159.319,71.6,88,90,12.66,US,1615784526
castro,-24.7911,-50.0119,61.81,93,25,2.17,BR,1615784476
puerto ayora,-0.7393,-90.3518,75.99,95,63,3.71,EC,1615784527
cidreira,-30.1811,-50.2056,72.21,86,38,6.38,BR,1615784527
salinopolis,-0.6136,-47.3561,77.67,86,1,5.53,BR,1615784528
maningrida,-12.0667,134.2667,87.66,63,54,5.79,AU,1615784528
marawi,7.9986,124.2928,84.0,81,28,5.99,PH,1615784530
hasaki,35.7333,140.8333,66.0,36,20,10.36,JP,1615784530
lata,40.1629,-8.3327,52.0,100,20,2.3,PT,1615784531
coihaique,-45.5752,-72.0662,50.45,96,37,5.08,CL,1615784531
hobart,-42.8794,147.3294,70.0,40,0,19.57,AU,1615784420
qaanaaq,77.484,-69.3632,-7.69,62,99,7.74,GL,1615784532
torbay,47.6666,-52.7314,25.0,86,90,9.22,CA,1615784532
lorengau,-2.0226,147.2712,84.47,67,97,5.66,PG,1615784533
jamestown,42.097,-79.2353,21.99,63,1,9.69,US,1615784533
new norfolk,-42.7826,147.0587,70.0,41,17,3.0,AU,1615784533
vaini,-21.2,-175.2,80.6,78,75,3.44,TO,1615784534
salinas,36.6777,-121.6555,55.4,82,90,6.91,US,1615784325
los llanos de aridane,28.6585,-17.9182,66.2,68,90,13.8,ES,1615784535
nhulunbuy,-12.2333,136.7667,84.2,74,75,3.44,AU,1615784535
carinhanha,-14.3047,-43.765,68.5,77,2,3.42,BR,1615784536
port elizabeth,-33.918,25.5701,68.0,100,75,2.28,ZA,1615784536
bambous virieux,-20.3428,57.7575,77.0,94,75,5.75,MU,1615784536
inhambane,-23.865,35.3833,75.25,90,1,3.29,MZ,1615784537
okhotsk,59.3833,143.3,14.29,87,100,7.34,RU,1615784537
ponta do sol,32.6667,-17.1,55.0,69,98,3.0,PT,1615784538
linhares,-19.3911,-40.0722,69.85,97,8,1.32,BR,1615784538
yining,29.0361,114.5636,70.5,82,49,1.57,CN,1615784539
ayan,56.45,138.1667,23.65,92,100,10.38,RU,1615784539
jieshi,22.8134,115.8257,77.0,61,29,10.13,CN,1615784539
huarmey,-10.0681,-78.1522,73.15,74,99,6.08,PE,1615784540
port-gentil,-0.7193,8.7815,79.43,79,100,4.36,GA,1615784540
evans,33.5337,-82.1307,66.0,16,97,8.08,US,1615784541
thessalon,46.2501,-83.5666,21.2,49,1,3.44,CA,1615784541
carnarvon,-24.8667,113.6333,89.6,62,0,10.36,AU,1615784542
umba,66.6871,34.3429,24.13,97,93,2.17,RU,1615784542
hermanus,-34.4187,19.2345,61.0,95,93,1.99,ZA,1615784543
asau,46.4333,26.4,41.0,62,100,4.07,RO,1615784543
atuona,-9.8,-139.0333,80.35,69,7,11.34,PF,1615784544
guozhen,34.3659,107.359,74.26,36,0,4.54,CN,1615784544
cape town,-33.9258,18.4232,60.8,94,90,17.27,ZA,1615784411
hilo,19.7297,-155.09,71.6,83,75,3.44,US,1615784270
bataipora,-22.2953,-53.2711,71.58,87,95,1.95,BR,1615784545
dali,25.7,100.1833,69.37,31,2,8.25,CN,1615784546
pisco,-13.7,-76.2167,75.2,69,0,9.22,PE,1615784546
belaya gora,68.5333,146.4167,-6.5,85,1,5.39,RU,1615784546
alyangula,-13.8483,136.4192,84.2,89,75,3.44,AU,1615784547
la ronge,55.1001,-105.2842,41.0,60,16,13.8,CA,1615784547
tuktoyaktuk,69.4541,-133.0374,-11.2,84,90,14.97,CA,1615784548
naze,28.3667,129.4833,69.8,56,20,8.05,JP,1615784548
yulara,-25.2406,130.9889,77.0,19,0,18.41,AU,1615784549
ostrovnoy,68.0531,39.5131,22.77,94,99,3.89,RU,1615784549
arraial do cabo,-22.9661,-42.0278,75.92,87,99,14.41,BR,1615784411
kahului,20.8947,-156.47,75.2,73,40,3.44,US,1615784550
belmonte,-15.8631,-38.8828,73.4,88,0,2.3,BR,1615784550
chilliwack,49.1747,-121.9443,41.0,93,100,1.14,CA,1615784536
omaruru,-21.4333,15.9333,66.36,83,82,2.86,NA,1615784551
san patricio,28.017,-97.5169,59.0,72,1,3.44,US,1615784551
ribeira grande,38.5167,-28.7,60.31,92,47,6.53,PT,1615784552
bengkulu,-3.8004,102.2655,84.33,71,12,5.99,ID,1615784552
san jeronimo,-11.9472,-75.2829,50.02,89,99,1.23,PE,1615784553
virginia beach,36.8529,-75.978,55.4,33,90,16.11,US,1615784553
oussouye,12.485,-16.5469,69.8,88,0,6.51,SN,1615784554
ahipara,-35.1667,173.1667,67.28,82,71,4.05,NZ,1615784554
upernavik,72.7868,-56.1549,-8.3,99,98,5.77,GL,1615784555
port augusta,-32.5,137.7667,78.01,46,0,11.5,AU,1615784555
banjar,-8.19,114.9675,91.4,66,40,9.22,ID,1615784556
champerico,14.3,-91.9167,66.99,96,47,7.74,GT,1615784430
georgetown,5.4112,100.3354,89.6,62,20,4.61,MY,1615784547
sitka,57.0531,-135.33,30.2,59,75,8.05,US,1615784557
abonnema,4.7084,6.7931,75.18,90,100,2.48,NG,1615784557
vardo,70.3705,31.1107,28.4,93,75,8.05,NO,1615784557
lebu,-37.6167,-73.65,54.34,92,1,2.3,CL,1615784558
tananger,58.9333,5.6,37.99,100,0,4.61,NO,1615784558
avera,33.194,-82.5271,66.2,77,1,6.91,US,1615784559
samtredia,42.1537,42.3352,46.4,49,40,32.21,GE,1615784559
ranong,9.9658,98.6348,89.6,58,20,11.5,TH,1615784560
hami,42.8,93.45,54.16,24,100,10.54,CN,1615784560
vao,-22.6667,167.4833,76.78,79,0,15.35,NC,1615784561
tura,25.5198,90.2201,87.31,24,0,6.46,IN,1615784561
pacific grove,36.6177,-121.9166,55.4,76,90,13.8,US,1615784447
fort nelson,58.8053,-122.7002,-5.8,84,40,2.3,CA,1615784562
samarai,-10.6167,150.6667,83.52,70,34,1.72,PG,1615784562
mayo,38.8876,-76.5119,44.6,31,1,19.57,US,1615784562
nautla,20.2167,-96.7833,73.51,93,0,6.11,MX,1615784563
chapais,49.7834,-74.8492,-9.4,64,1,10.36,CA,1615784563
bonthe,7.5264,-12.505,76.3,84,36,4.97,SL,1615784564
lavrentiya,65.5833,-171.0,21.25,94,100,11.21,RU,1615784564
mogocha,53.7333,119.7667,16.61,60,65,15.86,RU,1615784565
piacabucu,-10.4056,-36.4344,76.06,78,100,4.63,BR,1615784565
grindavik,63.8424,-22.4338,39.2,93,75,11.5,IS,1615784566
lompoc,34.6391,-120.4579,51.8,76,90,4.09,US,1615784566
mar del plata,-38.0023,-57.5575,68.0,77,0,5.75,AR,1615784566
shimoda,34.6667,138.95,60.8,51,20,4.61,JP,1615784567
tabou,4.423,-7.3528,77.16,90,100,5.44,CI,1615784567
imeni morozova,59.9757,31.0376,35.01,97,100,4.76,RU,1615784568
tasiilaq,65.6145,-37.6368,26.6,54,75,32.21,GL,1615784568
dikson,73.5069,80.5464,-23.26,96,100,12.1,RU,1615784568
porto belo,-27.1578,-48.5531,79.0,95,86,2.98,BR,1615784569
sakakah,29.9697,40.2064,57.2,30,100,8.05,SA,1615784482
fairbanks,64.8378,-147.7164,8.6,65,1,3.04,US,1615784484
havre-saint-pierre,50.2334,-63.5986,5.0,47,40,12.66,CA,1615784570
nikolskoye,59.7035,30.7861,32.0,100,75,4.47,RU,1615784570
anadyr,64.75,177.4833,1.4,78,40,15.66,RU,1615784571
sao filipe,14.8961,-24.4956,70.39,74,0,4.65,CV,1615784571
saint-paul,-21.0096,55.2707,80.6,83,0,4.61,RE,1615784300
alihe,50.5667,123.7167,24.35,88,100,13.42,CN,1615784572
caravelas,-17.7125,-39.2481,72.54,87,0,3.13,BR,1615784572
kandrian,-6.2167,149.55,87.08,63,55,4.07,PG,1615784572
evensk,61.95,159.2333,-0.42,75,24,0.43,RU,1615784573
bilma,18.6853,12.9164,73.85,16,0,11.99,NE,1615784573
souillac,-20.5167,57.5167,77.0,94,75,5.75,MU,1615784463
ongandjera,-17.8833,15.0667,71.49,72,99,1.79,NA,1615784574
wad rawah,15.1603,33.1397,78.85,20,2,8.88,SD,1615784574
sao joao da barra,-21.6403,-41.0511,75.25,90,52,10.38,BR,1615784575
constitucion,-35.3333,-72.4167,56.08,88,94,1.07,CL,1615784575
ilo,-17.6394,-71.3375,71.53,85,69,6.91,PE,1615784576
manavalakurichi,8.1333,77.3,91.4,55,20,4.61,IN,1615784576
boa vista,2.8197,-60.6733,78.8,78,75,2.3,BR,1615784576
noyabrsk,63.1994,75.4507,17.33,92,100,13.76,RU,1615784577
klichka,50.4457,117.996,16.59,69,100,32.88,RU,1615784577
yumen,40.2833,97.2,43.57,19,56,22.21,CN,1615784578
phan thiet,10.9333,108.1,87.3,50,71,10.85,VN,1615784578
nizhniy kuranakh,58.8353,125.4869,7.59,79,100,12.66,RU,1615784579
nueva loja,0.0847,-76.8828,70.66,99,100,1.43,EC,1615784579
east london,-33.0153,27.9116,71.6,88,0,6.91,ZA,1615784579
sioux lookout,50.1001,-91.917,21.2,42,1,4.61,CA,1615784580
provideniya,64.3833,-173.3,21.51,97,100,9.06,RU,1615784580
chuy,-33.6971,-53.4616,62.11,83,0,2.55,UY,1615784581
port blair,11.6667,92.75,84.2,84,40,9.22,IN,1615784581
papara,-3.9839,-38.7273,82.0,78,75,8.05,BR,1615784582
barrow,71.2906,-156.7887,-9.4,70,1,11.5,US,1615784470
zhaoqing,23.0512,112.4597,75.99,99,96,4.85,CN,1615784582
montanha,-18.1269,-40.3633,68.45,95,13,1.97,BR,1615784583
choma,-16.8065,26.9531,61.59,95,45,6.4,ZM,1615784583
fereydun kenar,36.6864,52.5225,37.4,93,75,2.3,IR,1615784583
saint-pierre,-21.3393,55.4781,78.8,78,90,8.05,RE,1615784584
taoudenni,22.6783,-3.9836,67.98,39,92,11.5,ML,1615784584
innisfail,-17.5333,146.0333,83.39,70,31,7.96,AU,1615784585
kokoda,-8.8785,147.7407,81.34,89,70,3.04,PG,1615784585
hithadhoo,-0.6,73.0833,84.54,61,68,5.86,MV,1615784586
pitimbu,-7.4706,-34.8086,75.2,100,40,5.75,BR,1615784586
klaksvik,62.2266,-6.589,37.4,81,91,3.44,FO,1615784586
vagur,61.4732,-6.8119,40.32,68,37,9.42,FO,1615784587
khatanga,71.9667,102.5,-19.34,92,100,11.52,RU,1615784587
longyearbyen,78.2186,15.6401,-2.2,65,40,10.36,SJ,1615784588
katobu,-4.9408,122.5276,84.99,75,24,3.4,ID,1615784588
hervey bay,-25.2986,152.8535,88.0,51,80,13.8,AU,1615784589
uarini,-2.99,-65.1083,73.36,95,85,1.77,BR,1615784589
llanes,43.4198,-4.7549,46.0,98,1,2.93,ES,1615784589
flin flon,54.7682,-101.865,30.9,79,21,12.19,CA,1615784590
jablonec nad jizerou,50.7035,15.4296,32.0,94,87,3.69,CZ,1615784590
westport,41.1415,-73.3579,28.99,34,1,13.8,US,1615784591
pevek,69.7008,170.3133,-7.51,96,100,15.26,RU,1615784591
kingston upon hull,53.7446,-0.3353,43.0,87,20,6.91,GB,1615784531
bireun,5.203,96.7009,84.99,66,59,6.2,ID,1615784592
ulaanbaatar,47.9077,106.8832,15.8,45,75,13.42,MN,1615784592
kopavogur,64.1123,-21.913,37.4,81,75,11.5,IS,1615784593
diamantino,-14.4086,-56.4461,71.22,95,70,3.38,BR,1615784593
san andres,12.5847,-81.7006,78.8,78,40,9.22,CO,1615784467
sechura,-5.5569,-80.8222,77.67,70,96,10.38,PE,1615784462
bethel,41.3712,-73.414,25.0,45,2,1.01,US,1615784594
tuatapere,-46.1333,167.6833,57.0,71,75,11.01,NZ,1615784595
touba,8.2833,-7.6833,73.81,70,57,3.09,CI,1615784595
mareeba,-17.0,145.4333,89.6,55,38,12.66,AU,1615784595
ixtapa,20.7,-105.2,68.0,83,1,2.53,MX,1615784596
takoradi,4.8845,-1.7554,77.47,82,100,6.08,GH,1615784596
nanortalik,60.1432,-45.2371,29.26,83,100,5.5,GL,1615784597
vicente guerrero,19.1194,-98.1708,62.22,46,13,2.89,MX,1615784597
sao felix do xingu,-6.6447,-51.995,70.34,98,82,0.6,BR,1615784597
mount isa,-20.7333,139.5,86.0,48,75,10.36,AU,1615784598
igarka,67.4667,86.5833,-8.32,91,71,4.21,RU,1615784598
tautira,-17.7333,-149.15,84.0,74,75,4.61,PF,1615784599
macae,-22.3708,-41.7869,73.4,100,0,2.3,BR,1615784599
sosua,19.7667,-70.5167,68.0,94,20,3.58,DO,1615784385
jasper,37.2001,-94.3502,51.01,100,90,4.61,US,1615784415
poum,-20.2333,164.0167,80.15,69,18,5.55,NC,1615784600
vila,42.0304,-8.1588,39.99,91,5,3.0,PT,1615784600
saint george,37.1041,-113.5841,52.0,50,1,1.5,US,1615784416
wattegama,6.7989,81.4808,86.0,70,20,14.97,LK,1615784484
mayenne,48.3333,-0.6667,48.2,87,90,10.36,FR,1615784601
amapa,1.0,-52.0,70.27,99,100,1.1,BR,1615784602
cherskiy,68.75,161.3,-11.52,92,73,5.46,RU,1615784602
dongsheng,39.8161,109.9776,37.31,16,53,12.59,CN,1615784603
shingu,33.7333,135.9833,59.0,51,20,17.27,JP,1615784603
nizhnevartovsk,60.9344,76.5531,17.6,86,90,8.95,RU,1615784604
san quintin,30.4833,-115.95,53.98,85,65,14.18,MX,1615784604
codrington,-38.2667,141.9667,64.8,74,98,9.89,AU,1615784605
leh,34.1667,77.5833,27.23,58,34,3.42,IN,1615784412
kupang,-10.1667,123.5833,86.0,74,20,6.91,ID,1615784605
punaauia,-17.6333,-149.6,84.2,70,75,2.3,PF,1615784407
xichang,27.8964,102.2634,72.81,40,0,3.38,CN,1615784606
hirara,24.8,125.2833,77.0,57,20,11.5,JP,1615784606
isangel,-19.55,169.2667,79.57,78,97,7.2,VU,1615784607
urbano santos,-3.2078,-43.4036,72.09,98,16,1.48,BR,1615784607
labuhan,-6.8844,112.2051,84.56,71,87,5.88,ID,1615784607
mahon,39.8885,4.2658,51.8,71,75,9.22,ES,1615784608
bolobo,-2.1667,16.2333,72.57,94,100,1.32,CD,1615784609
hailar,49.2,119.7,19.71,79,100,37.98,CN,1615784609
leningradskiy,69.3833,178.4167,0.37,94,100,10.51,RU,1615784610
hammerfest,70.6634,23.6821,26.6,86,90,12.66,NO,1615784610
fortuna,40.5982,-124.1573,39.99,96,100,8.5,US,1615784428
rawson,-43.3002,-65.1023,61.97,78,99,21.92,AR,1615784611
canon city,38.441,-105.2424,34.0,60,1,21.85,US,1615784611
tambura,5.6,27.4667,71.78,77,100,5.55,SS,1615784612
gaoual,11.75,-13.2,67.84,72,2,2.26,GN,1615784612
auki,-8.7676,160.7034,83.75,71,79,5.55,SB,1615784613
orotukan,62.2667,151.7,4.86,81,24,4.43,RU,1615784613
xai-xai,-25.0519,33.6442,75.15,80,23,7.02,MZ,1615784614
sikasso,10.9167,-7.0,71.1,22,0,0.38,ML,1615784614
requena,39.4883,-1.1004,50.0,84,0,3.96,ES,1615784614
pangnirtung,66.1451,-65.7125,-18.81,85,4,2.06,CA,1615784615
valparaiso,-33.0393,-71.6273,59.0,94,90,2.3,CL,1615784529
port hedland,-20.3167,118.5667,93.2,36,57,19.57,AU,1615784616
pangody,65.85,74.4859,16.72,94,96,9.01,RU,1615784616
malanville,11.8685,3.3899,78.98,26,34,6.87,BJ,1615784616
nishihara,26.1842,127.7558,75.2,46,20,10.36,JP,1615784617
blois,47.5833,1.3333,46.0,87,90,6.91,FR,1615784617
chanika,-5.4167,38.0167,71.28,80,7,1.57,TZ,1615784477
bac lieu,9.285,105.7244,85.78,56,100,16.24,VN,1615784618
kushiro,42.975,144.3747,46.4,66,40,25.32,JP,1615784618
tilichiki,60.4667,166.1,3.7,90,81,0.4,RU,1615784619
bayan,46.0833,127.4,33.01,42,100,19.42,CN,1615784619
airai,-8.9266,125.4092,71.29,81,100,0.69,TL,1615784620
abu dhabi,24.4667,54.3667,68.0,77,0,3.44,AE,1615784461
te anau,-45.4167,167.7167,59.88,77,55,6.6,NZ,1615784620
half moon bay,37.4636,-122.4286,48.2,87,90,14.97,US,1615784621
cayenne,4.9333,-52.3333,78.01,100,90,1.14,GF,1615784621
kruisfontein,-34.0033,24.7314,66.99,97,100,1.01,ZA,1615784622
high level,58.5169,-117.136,3.2,78,90,9.22,CA,1615784622
provost,52.3501,-110.2683,41.0,70,0,17.27,CA,1615784622
mount gambier,-37.8333,140.7667,71.6,60,75,13.8,AU,1615784623
tanete,-3.9443,119.7848,87.98,67,38,5.1,ID,1615784623
itarema,-2.9248,-39.9167,76.75,87,13,6.76,BR,1615784624
tutoia,-2.7619,-42.2744,76.64,88,1,6.73,BR,1615784624
kishapu,-3.6167,33.8667,66.76,73,10,9.17,TZ,1615784625
caconda,-13.7333,15.0667,59.85,97,100,0.63,AO,1615784625
lianran,24.9227,102.485,73.0,21,0,24.61,CN,1615784626
lufilufi,-13.8745,-171.5986,86.0,79,75,3.44,WS,1615784626
touros,-5.1989,-35.4608,75.2,94,40,2.3,BR,1615784627
kloulklubed,7.0419,134.2556,86.0,74,75,5.75,PW,1615784627
sooke,48.3746,-123.7276,42.8,70,63,29.93,CA,1615784627
litovko,49.2361,135.1742,33.53,90,2,3.6,RU,1615784628
atbasar,51.8,68.3333,3.83,85,2,5.88,KZ,1615784628
tabriz,38.08,46.2919,37.4,70,90,4.61,IR,1615784629
port lincoln,-34.7333,135.8667,68.09,64,99,10.22,AU,1615784629
sorland,67.667,12.6934,38.17,65,97,10.96,NO,1615784630
margate,51.3813,1.3862,46.0,84,82,4.0,GB,1615784459
williamsport,41.2412,-77.0011,30.2,37,1,17.27,US,1615784417
algeciras,36.1333,-5.4505,59.0,82,20,12.66,ES,1615784625
lagoa,39.05,-27.9833,59.18,91,49,9.42,PT,1615784589
kothen,51.75,11.9667,39.0,88,61,3.0,DE,1615784375
iqaluit,63.7506,-68.5145,-16.01,63,75,19.57,CA,1615784417
cabatuan,10.8794,122.486,85.87,68,11,10.13,PH,1615784632
roald,62.5833,6.1333,34.0,93,0,4.61,NO,1615784632
am timan,11.0297,20.2827,76.23,23,35,2.66,TD,1615784633
grand gaube,-20.0064,57.6608,75.99,93,80,5.01,MU,1615784633
novyy urengoy,66.0833,76.6333,11.55,94,96,4.65,RU,1615784634
atar,20.5169,-13.0499,69.17,29,0,6.6,MR,1615784540
zhigansk,66.7697,123.3711,-12.42,72,0,5.01,RU,1615784634
umm lajj,25.0213,37.2685,76.75,55,100,2.13,SA,1615784635
bereda,43.2686,-7.5406,39.99,100,44,1.01,ES,1615784635
saginaw,43.3334,-84.0333,26.6,74,1,4.61,US,1615784636
marsh harbour,26.5412,-77.0636,71.53,68,18,7.78,BS,1615784636
ancud,-41.8697,-73.8203,52.0,100,90,3.44,CL,1615784636
gweru,-19.45,29.8167,59.18,89,29,8.19,ZW,1615784637
lao cai,22.4833,103.95,84.34,57,72,3.49,VN,1615784637
dukat,62.55,155.55,0.03,90,49,3.13,RU,1615784638
kutna hora,49.9484,15.2682,36.0,80,75,9.22,CZ,1615784638
rundu,-17.9333,19.7667,64.33,84,64,3.98,NA,1615784639
la libertad,-2.2333,-80.9,79.88,74,100,6.76,EC,1615784639
villa altagracia,18.673,-70.171,72.0,88,20,4.61,DO,1615784640
bela cruz,-3.0506,-40.1678,74.23,92,11,3.02,BR,1615784640
wewak,-3.5534,143.6268,85.19,70,97,8.19,PG,1615784640
mahebourg,-20.4081,57.7,77.0,94,75,5.75,MU,1615784641
olafsvik,64.8945,-23.7142,35.29,91,100,16.62,IS,1615784641
vestmannaeyjar,63.4427,-20.2734,40.98,86,100,21.83,IS,1615784642
manzhouli,49.6,117.4333,17.46,61,100,37.13,CN,1615784642
port hawkesbury,45.6169,-61.3485,16.0,92,90,3.44,CA,1615784642
cockburn town,21.4612,-71.1419,75.09,67,4,12.39,TC,1615784643
gat,31.61,34.7642,55.99,100,99,1.01,IL,1615784643
astana,51.1801,71.446,-4.0,84,0,6.71,KZ,1615784644
wanning,18.8003,110.3967,77.63,73,44,8.93,CN,1615784644
huron,41.1501,-82.5499,26.01,72,96,4.0,US,1615784645
cookeville,36.1628,-85.5016,60.8,39,40,8.05,US,1615784471
puerto madryn,-42.7692,-65.0385,62.11,83,86,19.33,AR,1615784380
kapit,2.0167,112.9333,96.49,44,56,1.66,MY,1615784646
saldanha,-33.0117,17.9442,60.8,88,81,17.27,ZA,1615784646
washington,47.5001,-120.5015,45.0,72,100,10.0,US,1615784609
eyl,7.9803,49.8164,81.09,69,100,14.72,SO,1615784418
altay,47.8667,88.1167,22.96,90,100,5.14,CN,1615784647
ardakan,32.31,54.0175,48.2,46,0,2.3,IR,1615784648
jalu,29.0331,21.5482,54.84,57,0,8.84,LY,1615784648
kaitangata,-46.2817,169.8464,62.01,63,85,8.01,NZ,1615784648
chute-aux-outardes,49.1168,-68.399,6.8,66,90,14.97,CA,1615784649
ilulissat,69.2167,-51.1,10.4,61,100,8.05,GL,1615784649
nehe,48.4833,124.8333,37.9,33,66,19.26,CN,1615784650
cameta,-2.2444,-49.4958,75.38,89,98,3.65,BR,1615784650
alto araguaia,-17.3147,-53.2153,69.24,84,100,2.64,BR,1615784651
esso,55.9333,158.7,29.07,83,28,1.1,RU,1615784651
nyrob,60.733,56.7202,20.32,94,100,8.72,RU,1615784652
beringovskiy,63.05,179.3167,7.18,87,100,10.83,RU,1615784652
severo-kurilsk,50.6789,156.125,36.77,87,6,8.99,RU,1615784653
coquimbo,-29.9533,-71.3436,59.0,82,75,2.3,CL,1615784653
aksu,41.1231,80.2644,62.17,22,27,7.16,CN,1615784653
port macquarie,-31.4333,152.9167,71.6,68,75,10.36,AU,1615784654
sabang,5.8933,95.3214,83.39,73,48,17.29,ID,1615784654
hudiksvall,61.729,17.1036,30.56,97,98,4.07,SE,1615784655
alofi,-19.0595,-169.9187,84.2,74,100,5.75,NU,1615784655
benguela,-12.5763,13.4055,79.79,80,100,3.38,AO,1615784656
faya,18.3851,42.4509,62.6,39,0,4.61,SA,1615784656
abilene,32.4487,-99.7331,55.99,40,1,8.05,US,1615784537
farah,32.5,62.5,58.01,16,80,2.71,AF,1615784657
malakal,9.5334,31.6605,85.84,32,86,3.65,SS,1615784520
visnes,59.3556,5.2242,35.6,93,0,8.05,NO,1615784657
aranos,-24.1333,19.1167,67.69,65,38,6.69,NA,1615784658
oranjemund,-28.55,16.4333,61.39,92,4,11.79,NA,1615784658
padang,-0.9492,100.3543,84.2,74,20,4.61,ID,1615784659
la reforma,25.0833,-108.05,57.99,67,3,4.0,MX,1615784659
esperance,-33.8667,121.9,73.4,35,54,12.66,AU,1615784660
volcan,8.7667,-82.6333,58.03,66,4,6.62,PA,1615784660
chaska,44.7894,-93.6022,39.0,44,1,12.66,US,1615784638
hun,29.1268,15.9477,52.07,81,0,6.98,LY,1615784661
nantucket,41.2835,-70.0995,24.01,64,64,31.09,US,1615784661
shahr-e kord,32.3256,50.8644,28.4,80,0,1.54,IR,1615784661
hobyo,5.3505,48.5268,80.71,78,100,18.72,SO,1615784662
nova ushytsya,48.8372,27.2743,39.0,94,100,5.99,UA,1615784662
katherine,-14.4667,132.2667,91.4,55,75,6.91,AU,1615784663
vestmanna,62.1564,-7.1664,37.4,81,55,3.44,FO,1615784663
nome,64.5011,-165.4064,21.2,93,90,13.8,US,1615784559
ola,59.5833,151.2833,10.99,84,74,2.71,RU,1615784664
kattivakkam,13.2167,80.3167,86.0,54,20,2.3,IN,1615784664
santiago del estero,-27.7951,-64.2615,72.86,78,100,4.18,AR,1615784665
yamada,39.4667,141.95,52.02,65,62,4.5,JP,1615784665
guidonia,42.0167,12.75,39.0,76,0,3.0,IT,1615784666
russas,-4.9403,-37.9758,75.0,84,39,3.83,BR,1615784666
vila velha,-20.3297,-40.2925,77.0,83,0,3.44,BR,1615784523
boda,4.3189,17.4695,72.36,91,100,5.44,CF,1615784667
komsomolskiy,40.4272,71.7189,32.0,69,75,2.3,UZ,1615784668
khandyga,62.6667,135.6,18.03,78,100,1.3,RU,1615784668
luanda,-8.8368,13.2343,77.0,88,75,9.22,AO,1615784577
lubango,-14.9172,13.4925,60.76,91,100,3.44,AO,1615784669
raudeberg,61.9875,5.1352,39.2,75,0,13.8,NO,1615784669
san pedro,14.35,121.0167,87.8,66,40,5.75,PH,1615784670
leshukonskoye,64.8989,45.7622,25.72,95,99,6.89,RU,1615784670
zomin,39.9606,68.3958,31.84,71,100,5.23,UZ,1615784671
belle fourche,44.6714,-103.8522,30.0,100,90,13.8,US,1615784671
kudahuvadhoo,2.6708,72.8944,83.68,68,91,6.8,MV,1615784672
bardiyah,31.7561,25.0865,55.06,67,0,6.64,LY,1615784672
tibati,6.4667,12.6333,68.85,88,100,3.09,CM,1615784673
the valley,18.217,-63.0578,75.2,78,0,2.3,AI,1615784674
hovd,48.0056,91.6419,21.22,28,100,5.01,MN,1615784674
mmabatho,-25.85,25.6333,57.2,94,16,5.75,ZA,1615784541
ponta delgada,37.7333,-25.6667,59.0,100,75,5.75,PT,1615784675
narsaq,60.9167,-46.05,39.2,45,75,52.93,GL,1615784675
smithers,54.7804,-127.1743,28.4,46,40,4.61,CA,1615784676
kilindoni,-7.9139,39.6668,80.38,69,9,1.97,TZ,1615784676
severnyy,50.677,36.5532,32.0,86,0,8.95,RU,1615784677
petatlan,17.5167,-101.2667,70.07,89,2,3.49,MX,1615784416
teya,60.3778,92.6267,12.85,89,94,9.19,RU,1615784677
saint-ambroise,48.5501,-71.3324,3.99,66,100,20.71,CA,1615784678
maniitsoq,65.4167,-52.9,17.65,68,37,17.18,GL,1615784678
xingyi,24.1877,102.817,76.14,20,32,16.84,CN,1615784679
guanare,9.0418,-69.7421,89.6,45,48,6.91,VE,1615784679
ilam,26.9167,87.9167,75.16,38,4,5.91,NP,1615784679
yashkino,55.8736,85.4265,10.4,61,0,8.95,RU,1615784680
xinqing,48.2333,129.5,42.84,76,100,15.61,CN,1615784680
sainte-martine,45.2501,-73.7992,12.2,48,98,11.5,CA,1615784681
tanout,14.9709,8.8879,74.84,14,4,9.26,NE,1615784681
pringsewu,-5.3582,104.9744,87.42,65,48,2.8,ID,1615784682
tongliao,43.6125,122.2653,40.14,20,20,26.33,CN,1615784682
meulaboh,4.1363,96.1285,86.49,62,27,3.06,ID,1615784683
mukhen,48.1,136.1,48.18,62,6,6.6,RU,1615784683
soe,-9.8607,124.284,77.16,83,86,2.93,ID,1615784684
mookane,-23.688,26.6595,64.38,82,0,8.97,BW,1615784684
bilibino,68.0546,166.4372,-11.72,97,100,4.54,RU,1615784685
teahupoo,-17.8333,-149.2667,84.0,74,75,4.61,PF,1615784685
katsina,12.9894,7.6006,71.85,13,74,4.65,NG,1615784686
geraldton,-28.7667,114.6,95.0,14,64,3.44,AU,1615784686
caiaponia,-16.9567,-51.8103,67.91,92,100,0.4,BR,1615784687
lima,-12.0432,-77.0282,75.99,78,0,4.61,PE,1615784687
naerbo,58.6667,5.65,35.01,100,0,4.61,NO,1615784688
kano,12.0001,8.5167,75.2,29,93,6.91,NG,1615784688
walvis bay,-22.9575,14.5053,61.0,100,46,1.14,NA,1615784688
svetlaya,46.5389,138.3297,42.58,67,0,8.97,RU,1615784689
clyde river,70.4692,-68.5914,-5.8,77,75,26.46,CA,1615784689
dingle,10.9995,122.6711,87.03,67,14,7.92,PH,1615784690
verkhnyaya inta,65.9811,60.3094,19.74,86,100,18.63,RU,1615784690
novyye lyady,58.0536,56.6039,17.6,79,75,15.66,RU,1615784691
tagusao,9.1924,117.8141,82.99,76,9,10.6,PH,1615784691
guerrero,17.6667,-100.0,65.41,74,0,5.95,MX,1615784691
palau,7.503,134.621,86.0,74,75,5.75,PW,1615784692
rockland,41.1668,-74.0496,30.0,43,3,1.99,US,1615784692
pachino,36.7186,15.0907,42.8,87,0,2.3,IT,1615784693
tiznit,29.5833,-9.5,61.9,35,99,2.17,MA,1615784693
rocha,-34.4833,-54.3333,58.68,90,0,3.06,UY,1615784427
xixiang,35.1628,112.865,76.98,36,0,5.7,CN,1615784694
plainview,40.7765,-73.4673,30.99,29,1,20.71,US,1615784694
khanpur,28.6453,70.6567,82.08,26,72,13.51,PK,1615784694
douglas,41.3,-96.167,42.01,100,90,23.02,US,1615784610
alingsas,57.9303,12.5335,34.0,93,90,5.75,SE,1615784695
turbat,26.0023,63.044,82.4,34,0,1.72,PK,1615784582
antofagasta,-23.65,-70.4,64.4,77,0,3.44,CL,1615784696
mae hong son,19.3003,97.9685,89.6,51,2,4.61,TH,1615784696
port hardy,50.6996,-127.4199,41.0,86,40,9.22,CA,1615784400
sapulpa,35.9987,-96.1142,51.8,100,1,11.39,US,1615784471
brae,60.3964,-1.353,39.2,87,40,16.11,GB,1615784697
dakar,14.6937,-17.4441,69.8,52,0,14.97,SN,1615784439
song phi nong,14.2241,100.0209,98.01,50,0,8.3,TH,1615784698
bacolod,10.6667,122.95,85.3,69,17,4.14,PH,1615784699
kajaani,64.2273,27.7285,30.2,93,90,4.61,FI,1615784699
kalispell,48.1958,-114.3129,35.01,74,1,3.49,US,1615784699
prince rupert,54.3161,-130.3201,37.4,75,75,3.44,CA,1615784700
mersing,2.4312,103.8405,87.8,74,40,10.36,MY,1615784700
araouane,18.9048,-3.5265,68.23,35,0,8.84,ML,1615784701
husavik,66.0449,-17.3389,14.0,92,0,3.44,IS,1615784579
gurupi,-11.7292,-49.0686,71.6,90,41,2.53,BR,1615784584
ler,8.3018,30.1418,84.11,40,97,3.76,SS,1615784702
beira,-19.8436,34.8389,74.53,90,54,5.53,MZ,1615784702
rio gallegos,-51.6226,-69.2181,48.2,93,0,3.44,AR,1615784502
buzmeyin,38.0507,58.2056,32.0,86,90,6.91,TM,1615784703
ilebo,-4.3167,20.5833,71.22,99,100,1.01,CD,1615784703
goderich,43.7501,-81.7165,24.8,58,0,4.61,CA,1615784488
benghazi,32.1167,20.0667,59.54,75,67,17.78,LY,1615784575
qasigiannguit,68.8193,-51.1922,10.4,61,100,8.05,GL,1615784704
cabo san lucas,22.8909,-109.9124,66.99,29,1,8.05,MX,1615784407
okha,53.5739,142.9478,38.91,80,0,12.26,RU,1615784705
ziro,27.6333,93.8333,77.0,65,40,2.3,IN,1615784705
hofn,64.2539,-15.2082,34.81,73,96,8.7,IS,1615784705
mnogovershinnyy,53.9353,139.9242,35.01,88,25,8.19,RU,1615784706
groningen,53.25,6.75,39.99,93,20,6.91,NL,1615784460
markala,13.7021,-6.0659,70.5,26,0,9.44,ML,1615784707
jumla,29.2747,82.1838,62.47,22,0,3.89,NP,1615784707
burnie,-41.0667,145.9167,70.0,53,37,13.0,AU,1615784708
kavaratti,10.5669,72.642,83.28,69,13,7.54,IN,1615784708
kieta,-6.2167,155.6333,83.23,68,62,3.29,PG,1615784708
mountain home,43.133,-115.6912,51.8,28,1,4.61,US,1615784525
alenquer,-1.9417,-54.7383,75.2,100,0,3.44,BR,1615784709
kolpny,52.2282,37.0368,31.17,91,98,14.56,RU,1615784709
koutsouras,35.0339,25.9469,57.99,71,36,8.32,GR,1615784710
acari,-15.4311,-74.6158,73.36,80,83,1.77,PE,1615784710
nuuk,64.1835,-51.7216,21.2,79,20,11.5,GL,1615784711
palauig,15.435,119.9045,84.52,70,12,9.44,PH,1615784711
guerrero negro,27.9769,-114.0611,56.28,77,68,17.07,MX,1615784712
simao,22.7886,100.9748,83.08,21,53,8.1,CN,1615784712
sarkand,45.41,79.9186,27.97,89,100,5.32,KZ,1615784712
porto novo,6.4965,2.6036,79.3,79,100,4.74,BJ,1615784713
koksovyy,48.1967,40.5989,30.51,87,80,17.58,RU,1615784713
mahajanga,-15.7167,46.3167,78.8,89,20,4.61,MG,1615784714
qaqortoq,60.7167,-46.0333,39.2,45,75,52.93,GL,1615784714
boyolangu,-8.1181,111.8935,85.73,68,68,6.02,ID,1615784715
mikuni,36.2171,136.1519,53.6,58,20,5.75,JP,1615784715
cape canaveral,28.4058,-80.6048,69.8,94,1,3.44,US,1615784580
ornskoldsvik,63.2909,18.7153,28.4,100,0,2.3,SE,1615784716
elk point,42.6833,-96.6836,34.0,96,100,19.89,US,1615784716
vryheid,-27.7695,30.7917,56.46,90,26,3.22,ZA,1615784717
zalantun,48.0,122.7167,35.08,38,36,21.79,CN,1615784717
karratha,-20.7377,116.8463,92.8,40,50,21.09,AU,1615784717
pandan,14.0453,124.1694,82.09,82,59,1.16,PH,1615784718
jeremoabo,-10.075,-38.4808,65.64,92,57,4.83,BR,1615784718
saint anthony,45.0205,-93.218,39.0,44,1,5.75,US,1615784719
iki-burul,45.8208,44.6472,30.2,86,100,15.66,RU,1615784719
arica,-18.475,-70.3042,69.8,78,0,5.75,CL,1615784670
birao,10.2849,22.7882,74.28,24,74,4.61,CF,1615784720
young,-32.6833,-57.6333,71.01,57,0,3.0,UY,1615784720
wenling,28.3669,121.36,68.0,55,0,13.04,CN,1615784721
nizhniy odes,63.6445,54.856,21.7,94,100,9.15,RU,1615784721
viedma,-40.8135,-62.9967,60.57,88,59,9.19,AR,1615784722
puerto baquerizo moreno,-0.9,-89.6,77.97,79,74,4.74,EC,1615784567
laguna,38.421,-121.4238,51.01,87,90,5.75,US,1615784722
comodoro rivadavia,-45.8667,-67.5,59.0,82,0,1.14,AR,1615784723
abha,18.2164,42.5053,62.6,39,0,4.61,SA,1615784723
easton,40.6884,-75.2207,30.0,34,1,14.97,US,1615784724
kabanjahe,3.1001,98.4908,86.0,70,40,6.91,ID,1615784724
asbe teferi,9.0833,40.8667,68.72,47,51,7.76,ET,1615784724
vernon,50.2581,-119.2691,46.4,57,100,2.3,CA,1615784725
luderitz,-26.6481,15.1594,63.09,81,0,18.84,NA,1615784725
saint petersburg,59.8944,30.2642,32.0,100,75,4.47,RU,1615784670
canutama,-6.5339,-64.3831,72.86,86,71,0.65,BR,1615784726
tommot,58.9564,126.2925,9.14,79,100,12.33,RU,1615784727
kita,13.0349,-9.4895,69.21,20,16,2.93,ML,1615784727
kununurra,-15.7667,128.7333,86.0,79,40,9.22,AU,1615784727
blind river,46.1834,-82.9582,23.0,49,1,10.36,CA,1615784728
ouesso,1.6136,16.0517,70.16,98,100,3.27,CG,1615784536
brigantine,39.4101,-74.3646,35.01,34,1,13.8,US,1615784728
ust-koksa,50.2696,85.6108,23.94,84,100,4.56,RU,1615784729
novo aripuana,-5.1206,-60.3797,72.66,97,93,1.48,BR,1615784729
valleyview,55.0667,-117.2859,19.4,73,99,16.11,CA,1615784667
dzerzhinskoye,56.8344,95.2283,17.42,81,100,3.96,RU,1615784730
hualmay,-11.0964,-77.6139,72.73,76,93,5.23,PE,1615784552
ossora,59.2353,163.0719,11.12,81,76,1.23,RU,1615784730
fuerte olimpo,-21.0415,-57.8738,74.7,83,84,3.96,PY,1615784731
srednekolymsk,67.45,153.6833,-4.02,91,34,6.96,RU,1615784731
santa isabel do rio negro,-0.4139,-65.0192,74.8,89,82,1.95,BR,1615784732
tessalit,20.1986,1.0114,64.47,31,0,8.41,ML,1615784732
dunedin,-45.8742,170.5036,60.01,82,92,5.01,NZ,1615784598
dovolnoye,54.4958,79.6671,1.58,94,94,9.75,RU,1615784733
elat,29.5581,34.9482,57.2,67,0,5.75,IL,1615784711
ewa beach,21.3156,-158.0072,75.2,69,1,3.2,US,1615784734
shahr-e babak,30.1165,55.1186,55.27,34,5,9.71,IR,1615784734
iskateley,67.6803,53.1512,15.24,95,100,2.08,RU,1615784735
mezen,65.8522,44.24,29.55,95,99,6.89,RU,1615784735
vostok,46.4856,135.8833,48.63,64,0,3.04,RU,1615784736
bajina basta,43.9708,19.5675,28.4,100,90,17.27,RS,1615784736
broken hill,-31.95,141.4333,69.8,24,0,14.97,AU,1615784736
kholodnyy,62.7167,147.95,-2.22,81,81,1.57,RU,1615784737
cuamba,-14.8031,36.5372,69.3,98,98,1.92,MZ,1615784737
dhariwal,31.9542,75.3192,68.0,64,20,6.91,IN,1615784738
la macarena,2.1837,-73.7849,71.83,94,100,2.06,CO,1615784738
rozhdestveno,53.2375,50.0597,17.6,62,40,11.18,RU,1615784739
eureka,40.8021,-124.1637,39.99,89,100,1.01,US,1615784739
kutum,14.2,24.6667,65.52,12,0,3.31,SD,1615784740
meadow lake,34.8014,-106.5436,42.8,49,75,5.75,US,1615784539
zhuanghe,39.7008,122.9911,46.0,89,100,9.57,CN,1615784741
carauari,-4.8828,-66.8958,72.19,93,80,1.01,BR,1615784741
asfi,32.2994,-9.2372,57.69,75,98,17.09,MA,1615784741
luena,-11.7833,19.9167,61.29,96,90,2.37,AO,1615784742
kirkuk,35.4681,44.3922,60.3,48,98,1.16,IQ,1615784742
